City_ID,City,Country,Max Temp,Weather Description,Lat,Lng,Hotel Name
0,Puerto Ayora,EC,76.96,scattered clouds,-0.7393,-90.3518,Finch Bay Galapagos Hotel
1,Acajutla,SV,84.99,moderate rain,13.5928,-89.8275,Laureles
2,Bluff,NZ,50.45,overcast clouds,-46.6,168.3333,Bluff Homestead - Guesthouse & Campervan Park
3,Tiznit,MA,88.12,overcast clouds,29.5833,-9.5,
4,Hualmay,PE,68.16,broken clouds,-11.0964,-77.6139,Hotel Villa Kitzia Huacho
5,Cuencame,MX,80.8,clear sky,24.8711,-103.6964,
6,Constitucion,CL,56.66,heavy intensity rain,-35.3333,-72.4167,Hotel Boutique Las Azucenas
7,Eldorado,BR,68.23,few clouds,-23.7869,-54.2836,Villa Verde Hotel
8,Valparaiso,CL,64.63,clear sky,-33.0393,-71.6273,
9,Albany,US,88.27,scattered clouds,42.6001,-73.9662,
10,Laguna,US,74.43,clear sky,38.421,-121.4238,
11,Qarchi Gak,AF,70.68,overcast clouds,37.04,66.7889,
12,Pudozh,RU,47.57,few clouds,61.8099,36.5345,Guest-House na Transportnoy
13,Srednekolymsk,RU,47.73,overcast clouds,67.45,153.6833,
14,Victoria,HK,79.18,overcast clouds,22.2855,114.1577,
15,Mnogovershinnyy,RU,28.47,overcast clouds,53.9353,139.9242,
16,Tuktoyaktuk,CA,27.88,scattered clouds,69.4541,-133.0374,
17,Bethel,US,87.98,few clouds,41.3712,-73.414,
18,Yellowknife,CA,36.12,light rain,62.456,-114.3525,
19,Mar Del Plata,AR,60.94,overcast clouds,-38.0023,-57.5575,
20,Longyearbyen,SJ,37.24,broken clouds,78.2186,15.6401,
21,Ambon,ID,77.14,light rain,-3.6954,128.1814,
22,Sanandaj,IR,71.94,broken clouds,35.3144,46.9923,
23,Butaritari,KI,80.6,moderate rain,3.0707,172.7902,
24,Soyo,AO,78.24,broken clouds,-6.1349,12.3689,
25,Aklavik,CA,26.6,light snow,68.2191,-135.0107,
26,Castro,BR,65.82,clear sky,-24.7911,-50.0119,
27,Ushuaia,AR,33.46,few clouds,-54.8,-68.3,
28,Port Alfred,ZA,59.18,scattered clouds,-33.5906,26.891,
30,Mahebourg,MU,75.49,scattered clouds,-20.4081,57.7,
31,Rikitea,PF,75.96,clear sky,-23.1203,-134.9692,
32,Vaini,TO,75.36,scattered clouds,-21.2,-175.2,
33,Port Hedland,AU,77.05,overcast clouds,-20.3167,118.5667,
34,Souillac,MU,75.58,scattered clouds,-20.5167,57.5167,
35,Alofi,NU,79.07,light rain,-19.0595,-169.9187,
36,Sorland,NO,48.06,overcast clouds,67.667,12.6934,
37,Omsukchan,RU,31.06,overcast clouds,62.5333,155.8,
38,Hobart,AU,49.86,overcast clouds,-42.8794,147.3294,
39,Port Elizabeth,ZA,62.1,broken clouds,-33.918,25.5701,
40,Touros,BR,83.25,scattered clouds,-5.1989,-35.4608,
41,San Cristobal,VE,78.98,few clouds,7.7669,-72.225,
42,Salalah,OM,84.29,broken clouds,17.0151,54.0924,
43,La Baule-Escoublac,FR,80.26,clear sky,47.2922,-2.364,
44,Gat,IL,74.08,clear sky,31.61,34.7642,
45,Ancud,CL,48.61,light rain,-41.8697,-73.8203,
46,Qaanaaq,GL,23.85,overcast clouds,77.484,-69.3632,
47,Kavaratti,IN,83.55,overcast clouds,10.5669,72.642,
48,Severo-Kurilsk,RU,40.42,overcast clouds,50.6789,156.125,
49,Porto Novo,BJ,83.93,overcast clouds,6.4965,2.6036,
50,Harper,LR,79.0,overcast clouds,4.375,-7.7169,
51,Hermanus,ZA,60.8,scattered clouds,-34.4187,19.2345,
52,Kachug,RU,50.36,overcast clouds,53.9606,105.8817,
53,Saldanha,ZA,59.97,overcast clouds,-33.0117,17.9442,
54,Norman Wells,CA,42.73,broken clouds,65.282,-126.8329,
55,Moose Factory,CA,45.03,overcast clouds,51.2585,-80.6094,
56,Anadyr,RU,35.01,overcast clouds,64.75,177.4833,
57,Clyde River,CA,22.82,light snow,70.4692,-68.5914,
58,Kodinsk,RU,45.79,broken clouds,58.6881,99.1844,
59,Hilo,US,72.28,clear sky,19.7297,-155.09,
60,Bredasdorp,ZA,60.39,scattered clouds,-34.5322,20.0403,
61,Rorvik,NO,55.51,scattered clouds,64.8621,11.2373,
62,Shahrud,IR,69.51,scattered clouds,36.4182,54.9763,
63,Miramar,US,89.62,scattered clouds,25.9873,-80.2323,
64,Ostrovnoy,RU,32.94,clear sky,68.0531,39.5131,
65,Houma,US,84.0,scattered clouds,29.5958,-90.7195,
66,Ponta Do Sol,PT,75.0,few clouds,32.6667,-17.1,
67,Waingapu,ID,77.68,broken clouds,-9.6567,120.2641,
68,Bosaso,SO,88.72,overcast clouds,11.2842,49.1816,
69,Chornyanka,UA,64.47,broken clouds,46.6522,33.359,
70,Belyy Yar,RU,71.85,clear sky,53.6039,91.3903,
71,Prince George,CA,53.62,clear sky,53.9166,-122.75299999999999,
72,Cidreira,BR,63.25,overcast clouds,-30.1811,-50.2056,
73,Narsaq,GL,37.62,moderate rain,60.9167,-46.05,
74,New Norfolk,AU,49.5,overcast clouds,-42.7826,147.0587,
75,Vila Velha,BR,80.55,broken clouds,-20.3297,-40.2925,
76,Paamiut,GL,35.44,light rain,61.994,-49.6678,
77,Barrow,US,21.22,mist,71.2906,-156.7887,
78,Busselton,AU,61.65,overcast clouds,-33.65,115.3333,
79,Manjacaze,MZ,64.92,light rain,-24.7117,33.8828,
80,Son La,VN,69.22,heavy intensity rain,21.3167,103.9,
81,Road Town,VG,84.29,scattered clouds,18.4167,-64.6167,
82,Arraial Do Cabo,BR,75.06,few clouds,-22.9661,-42.0278,
83,Xinzhou,CN,64.9,broken clouds,38.4092,112.7333,
84,Ayr,GB,63.32,broken clouds,55.4627,-4.6339,
85,Cape Town,ZA,66.38,scattered clouds,-33.9258,18.4232,
86,Tokur,RU,32.67,overcast clouds,53.1333,132.9,
87,Tiksi,RU,30.09,overcast clouds,71.6872,128.8694,
88,Necochea,AR,61.34,overcast clouds,-38.5473,-58.7368,
89,East London,ZA,62.74,clear sky,-33.0153,27.9116,
90,Boguchany,RU,48.38,few clouds,58.3814,97.4531,
91,Calbuco,CL,49.21,light rain,-41.768,-73.1273,
92,Ryki,PL,58.62,overcast clouds,51.6257,21.9327,
93,Lebu,CL,54.66,overcast clouds,-37.6167,-73.65,
94,Kodiak,US,45.91,moderate rain,57.79,-152.4072,
95,Beringovskiy,RU,37.09,overcast clouds,63.05,179.3167,
96,Saskylakh,RU,34.02,overcast clouds,71.9167,114.0833,
97,Muros,ES,68.68,overcast clouds,42.7762,-9.0603,
98,Belaya Gora,RU,42.73,overcast clouds,68.5333,146.4167,
99,Petropavlovka,RU,60.8,scattered clouds,50.6114,105.3196,
100,Saint George,US,70.79,clear sky,37.1041,-113.5841,
101,Shakiso,ET,61.29,light rain,5.75,38.9167,
102,Rawson,AR,60.19,overcast clouds,-43.3002,-65.1023,
103,Gamba,GA,78.17,scattered clouds,-2.65,10.0,
104,Bonthe,SL,82.87,moderate rain,7.5264,-12.505,
105,Mtambile,TZ,79.09,overcast clouds,-5.3833,39.7,
106,San Patricio,US,76.86,moderate rain,28.017,-97.5169,
107,Carlibaba,RO,48.9,overcast clouds,47.5833,25.1333,
108,Isangel,VU,75.83,broken clouds,-19.55,169.2667,
109,Cabo San Lucas,MX,82.62,clear sky,22.8909,-109.9124,
110,Alcaniz,ES,95.52,overcast clouds,41.05,-0.1333,
111,Kandrian,PG,77.31,light rain,-6.2167,149.55,
112,Kapaa,US,75.18,broken clouds,22.0752,-159.319,
113,Mataura,NZ,43.41,overcast clouds,-46.1927,168.8643,
114,Pangnirtung,CA,31.69,light snow,66.1451,-65.7125,
115,Banda Aceh,ID,81.59,light rain,5.5577,95.3222,
116,Atuona,PF,77.5,light rain,-9.8,-139.0333,
117,Yangambi,CD,81.37,overcast clouds,0.8102,24.4336,
118,Paso De Carrasco,UY,64.54,clear sky,-34.8603,-56.0522,
119,Solnechnyy,RU,35.33,broken clouds,50.7214,136.6319,
120,Punta Arenas,CL,37.11,few clouds,-53.15,-70.9167,
121,Lodeynoye Pole,RU,49.66,clear sky,60.726000000000006,33.5531,
122,Alta Floresta,BR,82.8,clear sky,-9.8756,-56.0861,
123,Zhigalovo,RU,45.84,broken clouds,54.8097,105.1578,
124,Moron,AR,67.89,scattered clouds,-34.6534,-58.6198,
125,Kalmunai,LK,83.68,few clouds,7.4167,81.8167,
127,Avarua,CK,75.25,light intensity shower rain,-21.2078,-159.775,
128,Thompson,CA,58.71,broken clouds,55.7435,-97.8558,
129,Boyle,US,70.7,overcast clouds,37.6334,-84.8666,
130,Bilibino,RU,42.03,overcast clouds,68.0546,166.4372,
131,Gurupi,BR,88.86,clear sky,-11.7292,-49.0686,
132,Kruisfontein,ZA,59.88,overcast clouds,-34.0033,24.7314,
133,Georgetown,MY,84.13,few clouds,5.4112,100.3354,
134,Upernavik,GL,32.16,overcast clouds,72.7868,-56.1549,
135,Aykhal,RU,49.69,overcast clouds,66.0,111.5,
136,Taltal,CL,67.35,clear sky,-25.4,-70.4833,
137,Port Lincoln,AU,62.01,overcast clouds,-34.7333,135.8667,
138,Namatanai,PG,79.61,broken clouds,-3.6667,152.4333,
139,Dunedin,NZ,46.8,overcast clouds,-45.8742,170.5036,
140,Hithadhoo,MV,84.11,overcast clouds,-0.6,73.0833,
141,Okhotsk,RU,33.22,snow,59.3833,143.3,
142,Jamestown,US,69.44,overcast clouds,42.097,-79.2353,
143,Yuancheng,CN,64.27,broken clouds,36.652,107.7896,
144,Metro,ID,75.47,overcast clouds,-5.1131,105.3067,
145,Adeje,ES,74.28,few clouds,28.1227,-16.726,
146,Tommot,RU,43.34,overcast clouds,58.9564,126.2925,
147,Kismayo,SO,80.4,overcast clouds,-0.3582,42.5454,
148,Cabedelo,BR,79.47,light rain,-6.9811,-34.8339,
149,Beira,MZ,74.26,light rain,-19.8436,34.8389,
150,Unai,BR,80.53,few clouds,-16.3575,-46.9061,
151,Mata,PT,70.93,overcast clouds,40.683,-7.4592,
152,La Asuncion,VE,81.93,few clouds,11.0333,-63.8628,
153,Ketchikan,US,54.07,clear sky,55.3422,-131.6461,
154,Nikolskoye,RU,53.49,clear sky,59.7035,30.7861,
155,Yuty,PY,66.76,overcast clouds,-26.6,-56.25,
156,Nuuk,GL,34.41,light snow,64.1835,-51.7216,
157,Kitimat,CA,55.9,scattered clouds,54.0524,-128.6534,
158,Geraldton,AU,63.01,broken clouds,-28.7667,114.6,
159,Northam,GB,61.61,broken clouds,51.0333,-4.2167,
160,Tairua,NZ,57.78,overcast clouds,-37.0167,175.85,
161,Antalaha,MG,73.89,broken clouds,-14.9003,50.2788,
162,Lata,PT,74.07,broken clouds,40.1629,-8.3327,
163,Waitati,NZ,46.8,overcast clouds,-45.75,170.5667,
164,Klaksvik,FO,50.92,broken clouds,62.2266,-6.5889999999999995,
165,Nome,US,57.27,clear sky,64.5011,-165.4064,
166,Mereni,RO,68.0,overcast clouds,44.05,28.3667,
167,Shimoda,JP,66.18,scattered clouds,34.6667,138.95,
168,Ekibastuz,KZ,56.61,overcast clouds,51.6667,75.3667,
169,Cap Malheureux,MU,72.46,clear sky,-19.9842,57.6142,
170,Oxapampa,PE,65.32,overcast clouds,-10.5775,-75.4017,
171,Chokurdakh,RU,31.1,light snow,70.6333,147.9167,
172,Charqueada,BR,72.21,clear sky,-22.5097,-47.7781,
173,Saint-Philippe,RE,72.99,scattered clouds,-21.3585,55.7679,
174,Almeirim,BR,86.31,clear sky,-1.5233,-52.5817,
175,Hellvik,NO,61.77,overcast clouds,59.9156,5.781000000000001,
176,Rafai,CF,80.15,overcast clouds,4.95,23.9167,
177,Samarai,PG,80.19,scattered clouds,-10.6167,150.6667,
178,Bereda,ES,60.35,light rain,43.2686,-7.5406,
179,Kupino,RU,56.35,overcast clouds,54.3663,77.2981,
180,Tasiilaq,GL,35.76,overcast clouds,65.6145,-37.6368,
181,Carutapera,BR,84.85,few clouds,-1.195,-46.02,
182,Khatanga,RU,32.32,overcast clouds,71.9667,102.5,
183,Ilo,PE,66.99,broken clouds,-17.6394,-71.3375,
184,Mkuranga,TZ,72.63,overcast clouds,-7.117999999999999,39.2078,
185,Vallenar,CL,76.86,clear sky,-28.5708,-70.7581,
186,Marienburg,PL,57.58,overcast clouds,54.0359,19.0266,
187,Sao Filipe,CV,73.45,broken clouds,14.8961,-24.4956,
188,Provideniya,RU,44.35,overcast clouds,64.3833,-173.3,
190,Caxito,AO,77.22,overcast clouds,-8.5785,13.6643,
191,Lompoc,US,58.62,mist,34.6391,-120.4579,
192,Dikson,RU,28.06,light snow,73.5069,80.5464,
193,Airai,TL,58.69,scattered clouds,-8.9266,125.4092,
194,Guerrero Negro,MX,63.97,clear sky,27.9769,-114.0611,
195,Bairiki,KI,80.6,broken clouds,1.3292,172.9752,
196,Bubaque,GW,78.71,overcast clouds,11.2833,-15.8333,
197,Cherskiy,RU,46.2,broken clouds,68.75,161.3,
198,Ola,RU,36.63,light rain,59.5833,151.2833,
199,Sayyan,YE,71.74,few clouds,15.1718,44.3244,
200,Bondoukou,CI,78.39,overcast clouds,8.0333,-2.8,
201,Santa Ana,US,69.85,scattered clouds,33.7456,-117.8678,
202,Kosh-Agach,RU,63.3,overcast clouds,50.0,88.6667,
203,Fengzhen,CN,59.63,light rain,40.4394,113.1536,
204,Tuatapere,NZ,45.66,overcast clouds,-46.1333,167.6833,
205,Lugovoy,KZ,52.07,overcast clouds,42.9472,72.7644,
206,Jacareacanga,BR,90.46,clear sky,-6.2222,-57.7528,
207,Angangueo,MX,74.91,clear sky,19.6194,-100.2853,
208,Vila Do Maio,CV,79.59,broken clouds,15.1333,-23.2167,
209,Valley City,US,52.32,scattered clouds,46.9233,-98.0032,
210,Aksarka,RU,33.51,light snow,66.5606,67.7975,
211,Chuy,UY,63.93,clear sky,-33.6971,-53.4616,
212,Ponta Delgada,PT,73.51,light intensity drizzle,37.7333,-25.6667,
213,Ondarroa,ES,79.54,overcast clouds,43.3167,-2.4167,
214,Nichinan,JP,65.52,overcast clouds,31.6,131.3667,
215,Half Moon Bay,US,66.54,mist,37.4636,-122.4286,
216,Nanortalik,GL,37.87,light rain,60.1432,-45.2371,
217,Ribeira Grande,PT,66.6,broken clouds,38.5167,-28.7,
218,Kirovsk,UA,55.2,overcast clouds,48.6375,38.6428,
219,Hasaki,JP,61.29,overcast clouds,35.7333,140.8333,
220,Chiredzi,ZW,60.55,overcast clouds,-21.05,31.6667,
221,Bengkulu,ID,77.59,moderate rain,-3.8004,102.2655,
222,Polson,US,52.21,clear sky,47.6936,-114.1632,
223,Luyang,CN,59.76,overcast clouds,27.6239,110.0989,
224,Pevek,RU,33.69,few clouds,69.7008,170.3133,
225,Carnarvon,AU,68.07,scattered clouds,-24.8667,113.6333,
227,Cocobeach,GA,80.46,broken clouds,1.0002,9.5823,
228,Channel-Port Aux Basques,CA,48.0,overcast clouds,47.5702,-59.1367,
229,Miles City,US,49.17,clear sky,46.4083,-105.8406,
230,Yuzhno-Kurilsk,RU,47.14,light rain,44.0306,145.8556,
231,Ilulissat,GL,33.82,light rain and snow,69.2167,-51.1,
232,Jalu,LY,83.62,clear sky,29.0331,21.5482,
233,Yulara,AU,58.21,broken clouds,-25.2406,130.9889,
234,Teguldet,RU,59.31,overcast clouds,57.3064,88.1667,
235,Talnakh,RU,36.36,overcast clouds,69.4865,88.3972,
236,Port Saint Lucie,US,89.98,scattered clouds,27.2939,-80.3503,
237,Dondo,MZ,72.46,light rain,-19.6094,34.7431,
238,La Paz,BO,57.18,broken clouds,-16.5,-68.15,
239,Kolokani,ML,99.32,overcast clouds,13.5728,-8.0339,
240,Porgera,PG,41.31,broken clouds,-5.4667,143.2,
241,Udachnyy,RU,52.11,overcast clouds,66.4167,112.4,
242,Proletariy,RU,52.83,clear sky,58.4342,31.7046,
243,Boa Vista,BR,75.18,heavy intensity rain,2.8197,-60.6733,
244,Pailon,BO,80.28,overcast clouds,-17.65,-62.75,
245,Lyubytino,RU,50.38,clear sky,58.8122,33.3922,
246,Muroto,JP,68.16,clear sky,33.2833,134.15,
247,Tongchuan,CN,66.74,scattered clouds,35.0806,109.0897,
248,Laguna De Perlas,NI,80.58,overcast clouds,12.3429,-83.6712,
249,San Jose,US,70.54,few clouds,37.3394,-121.895,
250,Kampot,KH,77.05,light rain,10.6167,104.1833,
251,Dutlwe,BW,55.36,clear sky,-23.9833,23.9,
252,Port-Gentil,GA,78.48,broken clouds,-0.7193,8.7815,
253,Husavik,IS,38.39,overcast clouds,66.0449,-17.3389,
254,Nishihara,JP,74.48,broken clouds,26.1842,127.7558,
255,Avera,US,83.55,broken clouds,33.194,-82.5271,
256,Igrim,RU,48.61,light rain,63.1906,64.4162,
257,Sao Felix Do Xingu,BR,88.99,few clouds,-6.6447,-51.995,
258,Qinggang,CN,64.99,overcast clouds,46.6833,126.0833,
259,Aberdeen,GB,65.66,scattered clouds,57.1437,-2.0981,
260,Rosarito,MX,65.62,clear sky,32.3333,-117.0333,
261,Umm Lajj,SA,80.74,clear sky,25.0213,37.2685,
262,Vao,NC,73.83,broken clouds,-22.6667,167.4833,
263,Bahia De Caraquez,EC,82.58,overcast clouds,-0.6,-80.4167,
264,Ust-Nera,RU,33.33,scattered clouds,64.5667,143.2,
265,Lagoa,PT,62.24,light rain,39.05,-27.9833,
266,Ambulu,ID,76.57,broken clouds,-8.345,113.6058,
267,Lorengau,PG,82.4,overcast clouds,-2.0226,147.2712,
268,Honiara,SB,77.2,clear sky,-9.4333,159.95,
269,Nola,IT,77.65,clear sky,40.922,14.5329,
270,Ahipara,NZ,59.61,overcast clouds,-35.1667,173.1667,
271,Corozal,CO,86.59,clear sky,9.3151,-75.2928,
272,Neiafu,TO,79.9,few clouds,-18.65,-173.9833,
273,Ust-Tsilma,RU,33.55,light snow,65.441,52.1498,
274,Crotone,IT,81.19,broken clouds,39.0851,17.1178,
275,Buraydah,SA,99.52,clear sky,26.326,43.975,
276,Seymchan,RU,39.67,overcast clouds,62.8833,152.4333,
277,Praya,CV,79.34,few clouds,14.9215,-23.5087,
278,Hambantota,LK,80.94,few clouds,6.1241,81.1185,
279,Haverfordwest,GB,56.05,overcast clouds,51.8017,-4.9691,
280,Altamira,BR,88.25,clear sky,-3.2033,-52.2064,
281,Tonj,SS,89.1,overcast clouds,7.2737,28.6822,
282,Maturin,VE,86.81,broken clouds,9.75,-63.1767,
283,Horasan,TR,60.17,overcast clouds,40.0458,42.1728,
284,Mattru,SL,82.35,moderate rain,7.6244,-11.8332,
285,Taksimo,RU,46.38,overcast clouds,56.3444,114.8794,
286,Sao Jose Da Coroa Grande,BR,81.01,few clouds,-8.8978,-35.1478,
287,Masunga,BW,54.12,clear sky,-20.6246,27.4488,
288,Benguela,AO,76.59,scattered clouds,-12.5763,13.4055,
289,Xining,CN,52.97,scattered clouds,36.6167,101.7667,
290,Rio Blanquito,HN,87.94,overcast clouds,15.7333,-87.9,
291,Torbay,CA,61.29,broken clouds,47.6666,-52.7314,
292,Pangody,RU,50.56,overcast clouds,65.85,74.4859,
293,Ixtapa,MX,79.83,clear sky,20.7,-105.2,
295,Sitka,US,56.05,scattered clouds,57.0531,-135.33,
296,Yanam,IN,86.49,clear sky,16.7333,82.2167,
297,Coaraci,BR,83.88,clear sky,-14.6408,-39.5511,
298,Berlevag,NO,44.55,overcast clouds,70.8578,29.0864,
299,Cockburn Town,TC,79.61,broken clouds,21.4612,-71.1419,
300,Pihani,IN,87.24,clear sky,27.6333,80.2,
301,Manokwari,ID,78.82,overcast clouds,-0.8667,134.0833,
302,Tucuman,AR,73.6,clear sky,-26.8241,-65.2226,
303,Ust-Ilimsk,RU,40.19,scattered clouds,58.0006,102.6619,
304,Bekobod,UZ,58.69,overcast clouds,40.2208,69.2697,
305,Port Hardy,CA,51.51,overcast clouds,50.6996,-127.4199,
306,Rocha,UY,65.12,clear sky,-34.4833,-54.3333,
307,Vardo,NO,37.38,light rain,70.3705,31.1107,
308,Paulo Afonso,BR,81.9,broken clouds,-9.4061,-38.2147,
310,Port Blair,IN,83.16,overcast clouds,11.6667,92.75,
311,Ust-Maya,RU,33.75,few clouds,60.4167,134.5333,
312,Faanui,PF,80.46,clear sky,-16.4833,-151.75,
313,Senador Jose Porfirio,BR,85.19,clear sky,-2.5908,-51.9542,
314,Linxia,CN,56.62,scattered clouds,35.6003,103.2064,
315,Yayva,RU,40.17,overcast clouds,59.3303,57.2641,
317,Punganuru,IN,80.19,overcast clouds,13.3667,78.5833,
318,Victor Harbor,AU,56.68,overcast clouds,-35.5667,138.6167,
319,Felanitx,ES,84.72,overcast clouds,39.4696,3.1483,
320,Mahibadhoo,MV,83.82,overcast clouds,3.7833,72.9667,
321,Unecha,RU,51.93,overcast clouds,52.8459,32.6739,
322,Mbanza-Ngungu,CD,74.26,overcast clouds,-5.25,14.8667,
323,Zwedru,LR,77.63,moderate rain,6.0667,-8.1281,
324,Binzhou,CN,76.1,broken clouds,37.3667,118.0167,
325,Kavieng,PG,82.96,broken clouds,-2.5744,150.7967,
326,Kaspiyskiy,RU,67.62,clear sky,45.3929,47.3707,
327,Boli,CN,51.73,scattered clouds,45.7667,130.5167,
328,Kaitangata,NZ,45.7,overcast clouds,-46.2817,169.8464,
329,Bandarbeyla,SO,80.92,broken clouds,9.4942,50.8122,
330,Diamantino,BR,87.62,clear sky,-14.4086,-56.4461,
331,Yabassi,CM,77.54,light rain,4.457,9.9682,
332,Filomeno Mata,MX,87.33,clear sky,20.2,-97.7,
333,Atikokan,CA,44.37,overcast clouds,48.7555,-91.6216,
334,Mehamn,NO,44.51,broken clouds,71.0357,27.8492,
335,Hami,CN,82.53,overcast clouds,42.8,93.45,
336,Tartus,SY,67.84,clear sky,34.889,35.8866,
337,Ulladulla,AU,54.5,overcast clouds,-35.35,150.4667,
338,Marquette,US,45.77,overcast clouds,46.5333,-87.6335,
339,Arteaga,MX,81.12,scattered clouds,18.4667,-102.4167,
340,Whitehorse,CA,50.09,overcast clouds,60.7161,-135.0538,
341,Senhor Do Bonfim,BR,79.3,overcast clouds,-10.4614,-40.1894,
342,Najran,SA,86.58,clear sky,17.4924,44.1277,
343,Voh,NC,72.81,broken clouds,-20.9667,164.7,
344,Andenes,NO,46.38,broken clouds,69.3143,16.1194,
345,Quatre Cocos,MU,75.31,light rain,-20.2078,57.7625,
346,Gizo,SB,82.04,few clouds,-8.103,156.8419,
347,Aswan,EG,90.21,clear sky,24.0934,32.907,
348,Hamilton,US,65.77,overcast clouds,39.1834,-84.5333,
349,Kazar,HU,70.39,broken clouds,48.0495,19.8614,
350,Sandviken,SE,66.9,overcast clouds,60.6167,16.7667,
351,Rio Grande,BR,73.51,scattered clouds,-32.035,-52.0986,
352,Trelew,AR,61.12,overcast clouds,-43.248999999999995,-65.3051,
353,Keuruu,FI,62.78,overcast clouds,62.2667,24.7,
354,Cacu,BR,81.32,clear sky,-18.5567,-51.1308,
355,Rognan,NO,54.05,overcast clouds,67.0953,15.3878,
356,Burns Lake,CA,51.73,clear sky,54.2331,-125.7533,
357,Tilichiki,RU,31.98,scattered clouds,60.4667,166.1,
358,Coquimbo,CL,60.53,clear sky,-29.9533,-71.3436,
359,Oltu,TR,66.18,broken clouds,40.5498,42.0013,
360,Conselheiro Pena,BR,78.48,few clouds,-19.1722,-41.4722,
361,Te Anau,NZ,36.5,scattered clouds,-45.4167,167.7167,
362,Mezibori,CZ,66.7,broken clouds,50.6212,13.5987,
363,Tchamba,TG,86.94,overcast clouds,9.0333,1.4167,
364,Batagay,RU,40.68,scattered clouds,67.6333,134.6333,
365,Nelson Bay,AU,61.0,light rain,-32.7167,152.15,
366,Puerto Colombia,CO,89.69,clear sky,10.9878,-74.9547,
367,Turukhansk,RU,57.88,overcast clouds,65.8167,87.9833,
368,Leningradskiy,RU,30.0,overcast clouds,69.3833,178.4167,
369,Nouadhibou,MR,65.73,clear sky,20.930999999999997,-17.0347,
370,Roma,US,84.96,clear sky,43.2128,-75.4557,
371,Brae,GB,52.07,light rain,60.3964,-1.3530000000000002,
372,Kirakira,SB,79.38,few clouds,-10.4544,161.9205,
373,Hope,US,64.08,overcast clouds,33.6671,-93.5916,
374,Morgan City,US,83.01,broken clouds,29.6994,-91.2068,
375,Lavrentiya,RU,37.2,overcast clouds,65.5833,-171.0,
376,Viedma,AR,58.26,heavy intensity rain,-40.8135,-62.9967,
377,Sola,VU,80.78,few clouds,-13.8833,167.55,
378,Kenai,US,53.69,overcast clouds,60.5544,-151.2583,
379,Kingston,JM,89.24,few clouds,17.997,-76.7936,
380,Brownsville,US,84.94,light rain,25.9018,-97.4975,
381,Virginia Beach,US,89.02,overcast clouds,36.8529,-75.97800000000001,
383,Diu,IN,85.01,overcast clouds,20.7141,70.9822,
384,Manggar,ID,82.38,overcast clouds,-2.8833,108.2667,
385,Worland,US,54.61,clear sky,44.0169,-107.9554,
386,Mahajanga,MG,84.09,overcast clouds,-15.7167,46.3167,
388,Loknya,RU,51.75,clear sky,56.83,30.1467,
389,Waddan,LY,87.13,clear sky,29.1614,16.139,
390,Hibbing,US,49.39,broken clouds,47.4272,-92.9377,
391,Turayf,SA,78.53,overcast clouds,31.6725,38.6637,
392,Sortland,NO,51.76,overcast clouds,68.6949,15.4162,
393,Guymon,US,57.2,overcast clouds,36.6828,-101.4816,
394,Deputatskiy,RU,19.36,broken clouds,69.3,139.9,
395,Areosa,PT,62.83,broken clouds,41.7178,-8.8571,
396,The Valley,AI,85.1,clear sky,18.217,-63.0578,
397,Lasa,IT,74.7,overcast clouds,46.6166,10.7002,
398,Prince Albert,CA,54.07,few clouds,53.2001,-105.7677,
399,Nortelandia,BR,89.1,clear sky,-14.4547,-56.8028,
400,Erzin,TR,65.03,broken clouds,36.9559,36.2,
401,Iracoubo,GF,80.11,broken clouds,5.4802,-53.2011,
402,Luang Prabang,LA,73.62,overcast clouds,19.8856,102.1347,
403,Gaoua,BF,93.4,broken clouds,10.2992,-3.2508,
404,Marsh Harbour,BS,79.34,overcast clouds,26.5412,-77.0636,
405,Raybag,IN,78.26,clear sky,16.4833,74.7833,
407,Flinders,AU,57.18,moderate rain,-34.5833,150.8552,
408,Ternate,ID,81.59,overcast clouds,0.8,127.4,
409,Treinta Y Tres,UY,64.42,clear sky,-33.2333,-54.3833,
410,Pinsk,BY,48.87,light rain,52.1229,26.0951,
411,Sicamous,CA,56.19,clear sky,50.8331,-118.9856,
412,Graaff-Reinet,ZA,57.09,scattered clouds,-32.2522,24.5308,
413,Fort Morgan,US,51.22,overcast clouds,40.2503,-103.8,
414,Storm Lake,US,54.36,few clouds,42.6411,-95.2097,
415,Iwanai,JP,57.16,light rain,42.9744,140.5089,
416,Kimberley,ZA,57.11,broken clouds,-28.7323,24.7623,
417,Miri,MY,77.34,overcast clouds,4.4148,114.0089,
418,Benjamin Constant,BR,87.93,clear sky,-4.3831,-70.0311,
419,Portland,US,61.05,clear sky,45.5234,-122.6762,
420,Murgab,TM,70.97,clear sky,37.4966,61.9714,
422,Bonavista,CA,51.24,overcast clouds,48.6499,-53.1147,
423,Saint-Francois,FR,83.64,clear sky,46.4154,3.9054,
424,Togur,RU,65.89,overcast clouds,58.3631,82.8265,
425,Beloha,MG,68.76,scattered clouds,-25.1667,45.05,
426,Ahuimanu,US,75.2,few clouds,21.4447,-157.8378,
427,Uvinza,TZ,72.01,overcast clouds,-5.1036,30.3911,
428,Tougue,GN,92.91,overcast clouds,11.4667,-11.6,
429,Pisco,PE,66.02,mist,-13.7,-76.2167,
430,San Quintin,MX,61.81,scattered clouds,30.4833,-115.95,
431,Leninogorsk,RU,41.54,overcast clouds,54.6026,52.4609,
432,Gopalpur,IN,84.16,broken clouds,19.2667,84.9167,
433,Zanjan,IR,69.24,broken clouds,36.6736,48.4787,
435,Iqaluit,CA,26.33,light snow,63.7506,-68.5145,
436,Urusha,RU,41.54,light rain,54.05,122.9,
437,Sainte-Marie,RE,73.56,scattered clouds,-20.8968,55.5496,
438,Stromness,GB,53.87,moderate rain,58.965,-3.2960000000000003,
439,Kazanskoye,RU,43.79,broken clouds,55.6448,69.235,
440,Ossora,RU,34.34,overcast clouds,59.2353,163.0719,
441,Vilhena,BR,85.89,clear sky,-12.7406,-60.1458,
442,San Jeronimo,PE,59.18,broken clouds,-11.9472,-75.2829,
443,Puerto Maldonado,PE,77.4,broken clouds,-12.6,-69.1833,
444,Gouyave,GD,80.53,few clouds,12.1646,-61.7296,
445,Moshkovo,RU,58.66,broken clouds,55.3053,83.6104,
446,Tuim,RU,66.56,overcast clouds,54.3417,89.9261,
447,Sokoni,TZ,80.51,overcast clouds,-6.4333,39.55,
448,Zhangjiakou,CN,64.76,overcast clouds,40.81,114.8794,
449,Mananjary,MG,70.52,clear sky,-21.2167,48.3333,
450,Seoul,KR,61.99,clear sky,37.5683,126.9778,
451,Tocopilla,CL,69.51,clear sky,-22.092,-70.1979,
452,Trinidad,BO,75.54,overcast clouds,-14.8333,-64.9,
453,Tezu,IN,70.97,clear sky,27.9167,96.1667,
454,Kohlu,PK,87.46,broken clouds,29.8962,69.252,
455,Flin Flon,CA,57.29,overcast clouds,54.7682,-101.865,
456,Payo,ID,73.87,overcast clouds,-3.7508,103.6372,
457,Dawei,MM,76.95,overcast clouds,14.0833,98.2,
458,Zastron,ZA,49.41,scattered clouds,-30.3023,27.084,
459,San Andres,CO,84.22,broken clouds,12.5847,-81.7006,
460,Vestmanna,FO,49.12,light rain,62.1564,-7.1664,
461,Richards Bay,ZA,65.43,light rain,-28.783,32.0377,
462,Meadow Lake,US,57.6,clear sky,34.8014,-106.5436,
463,Skibbereen,IE,57.11,broken clouds,51.55,-9.2667,
464,Puerto Madryn,AR,59.61,overcast clouds,-42.7692,-65.0385,
465,Fereydun Kenar,IR,67.5,clear sky,36.6864,52.5225,
466,Havelock,US,80.58,overcast clouds,34.8791,-76.9013,
467,Codrington,AU,43.52,clear sky,-38.2667,141.9667,
468,Sri Aman,MY,76.89,overcast clouds,1.2376,111.4621,
469,Vanimo,PG,78.84,overcast clouds,-2.6741,141.3028,
470,Naifaru,MV,83.61,few clouds,5.4444,73.3657,
471,Kharan,PK,90.48,clear sky,28.5833,65.4167,
472,Namibe,AO,72.45,clear sky,-15.1961,12.1522,
473,Rosetown,CA,53.65,scattered clouds,51.5501,-108.0014,
474,Los Llanos De Aridane,ES,69.55,scattered clouds,28.6585,-17.9182,
475,Havoysund,NO,50.23,overcast clouds,70.9963,24.6622,Arctic View Glamping & Restaurant
476,Soe,ID,65.01,few clouds,-9.8607,124.28399999999999,
477,Torquay,GB,67.19,scattered clouds,50.4638,-3.5143,
478,Paita,PE,71.94,clear sky,-5.0892,-81.1144,Hotel Náutico de Paita
479,Faya,SA,77.52,clear sky,18.3851,42.4509,
480,Conceicao Do Araguaia,BR,87.01,clear sky,-8.2578,-49.2647,
481,Zhaodong,CN,65.1,broken clouds,46.0833,125.9833,
482,Hovd,MN,66.51,overcast clouds,48.0056,91.6419,Hotel Khovd
483,Keti Bandar,PK,82.81,few clouds,24.1447,67.4497,Haji laloo memon house
484,Moyale,KE,68.27,broken clouds,3.5167,39.0584,
485,Shakawe,BW,62.24,clear sky,-18.3667,21.85,Ditlhapi Guest House
486,Burgeo,CA,46.78,overcast clouds,47.6167,-57.6152,
487,Boffa,GN,88.5,broken clouds,10.1667,-14.0333,
488,Aginskoye,RU,55.8,clear sky,51.1,114.53,Кочевник
489,Catamarca,AR,77.58,clear sky,-28.4696,-65.7852,
490,Florencia,IT,82.35,clear sky,43.7667,11.25,
491,Kindu,CD,74.01,light rain,-2.95,25.95,
492,Ban Nahin,LA,75.72,light rain,18.2418,104.2122,
493,Morondava,MG,77.7,clear sky,-20.2833,44.2833,La Case Bambou
494,Sambava,MG,75.34,broken clouds,-14.2667,50.1667,
495,Matara,LK,79.2,clear sky,5.9485,80.5353,
496,Chunoyar,RU,47.8,clear sky,57.4467,97.3217,
497,Anzio,IT,84.74,clear sky,41.4853,12.6179,
498,Bulembu,SZ,52.48,moderate rain,-25.9667,31.1333,
499,Fairbanks,US,56.08,scattered clouds,64.8378,-147.7164,
500,Labuhan,ID,80.85,light rain,-6.8844,112.2051,
501,North Bend,US,54.25,broken clouds,43.4065,-124.2243,
502,Kayalpattinam,IN,85.24,overcast clouds,8.5667,78.1167,
503,Olga,RU,49.77,scattered clouds,43.7444,135.2892,Gostinitsa Rosmorport.
504,Conde,BR,78.26,broken clouds,-7.2597,-34.9075,
505,Suzun,RU,61.83,scattered clouds,53.7841,82.3116,
506,Garachine,PA,84.61,few clouds,8.0647,-78.3628,
507,Ballina,AU,58.78,overcast clouds,-28.8667,153.5667,
508,Kloulklubed,PW,82.87,overcast clouds,7.0419,134.2556,
509,Letlhakeng,BW,55.13,clear sky,-24.0944,25.0298,
510,Awbari,LY,92.95,clear sky,26.5921,12.7805,
511,Sainte-Martine,CA,79.07,overcast clouds,45.2501,-73.7992,
512,Parry Sound,CA,46.63,overcast clouds,45.3501,-80.033,
513,Mogadishu,SO,80.58,overcast clouds,2.0371,45.3438,
514,Guryevsk,RU,61.95,overcast clouds,54.2833,85.9333,
515,Broome,US,84.45,clear sky,42.2506,-75.833,
516,Bathsheba,BB,88.41,scattered clouds,13.2167,-59.5167,
517,Esmeraldas,BR,74.26,few clouds,-19.7625,-44.3139,
518,Altagracia De Orituco,VE,93.67,few clouds,9.8601,-66.3814,
519,Luanda,AO,77.0,clear sky,-8.8368,13.2343,
520,Padang,ID,78.17,overcast clouds,-0.9492,100.3543,
521,Palmer,US,91.81,scattered clouds,42.1584,-72.3287,
522,Villa Rica,US,85.82,broken clouds,33.7321,-84.9191,
523,Nezhinka,RU,46.56,light intensity shower rain,51.7676,55.3694,
524,Saint-Pierre,RE,73.08,few clouds,-21.3393,55.4781,
525,Abalak,RU,42.71,overcast clouds,58.1286,68.5944,
526,Korla,CN,81.27,overcast clouds,41.7597,86.1469,
527,Casa Nova,BR,84.97,few clouds,-9.4167,-41.1333,
528,Itoman,JP,75.22,broken clouds,26.1247,127.6694,
529,Bambous Virieux,MU,75.45,light rain,-20.3428,57.7575,
530,Mezen,RU,36.97,overcast clouds,65.8522,44.24,
531,Pirgos,GR,71.62,clear sky,35.1167,25.7178,
533,Amahai,ID,78.4,light rain,-3.3333,128.9167,
534,Hendala,LK,82.35,broken clouds,6.9909,79.883,
535,Leshukonskoye,RU,40.77,overcast clouds,64.8989,45.7622,
536,Kupang,ID,77.72,clear sky,-10.1667,123.5833,
537,Melfi,IT,79.84,clear sky,40.9965,15.6514,
538,George,ZA,58.28,broken clouds,-33.963,22.4617,
539,Fare,PF,80.15,clear sky,-16.7,-151.0167,
540,Bam,IR,82.83,clear sky,29.105999999999998,58.357,
542,Launceston,AU,39.15,few clouds,-41.45,147.1667,
543,Payyannur,IN,76.86,overcast clouds,12.1,75.2,
544,Toora-Khem,RU,62.01,overcast clouds,52.4675,96.11,
545,Lubyany,RU,38.57,overcast clouds,56.0378,51.4,
546,Aki,JP,64.56,clear sky,33.5,133.9,
547,Dzerzhinskoye,RU,51.06,scattered clouds,56.8344,95.2283,
548,Ocala,US,86.95,haze,29.1872,-82.1401,
549,Erenhot,CN,69.13,broken clouds,43.6475,111.9767,
550,Kamiiso,JP,52.88,overcast clouds,41.8167,140.65,
551,Tabou,CI,77.5,overcast clouds,4.423,-7.3528,
552,Taraz,KZ,54.01,overcast clouds,42.9,71.3667,
553,Khuzhir,RU,41.92,overcast clouds,53.1939,107.3397,
554,Batagay-Alyta,RU,26.06,scattered clouds,67.8006,130.4114,
555,Puerto Leguizamo,CO,84.6,broken clouds,-0.1934,-74.7819,
556,Sept-Iles,CA,54.05,overcast clouds,50.2001,-66.3821,
557,Nyurba,RU,47.34,overcast clouds,63.2842,118.3319,
558,Hofn,IS,53.62,broken clouds,64.2539,-15.2082,
559,Vukovar,HR,76.77,clear sky,45.3433,18.9997,
560,Kieta,PG,78.78,scattered clouds,-6.2167,155.6333,
561,Kaseda,JP,65.77,overcast clouds,31.4167,130.3167,
562,Dingle,PH,77.59,overcast clouds,10.9995,122.6711,
563,Imbituba,BR,67.08,broken clouds,-28.24,-48.6703,
564,Goma,CD,66.16,moderate rain,-1.6792,29.2228,
565,Neverkino,RU,47.84,overcast clouds,52.7854,46.7417,
566,Pangai,TO,78.13,scattered clouds,-19.8,-174.35,
567,Cutervo,PE,60.3,broken clouds,-6.379,-78.8157,
568,Shar,KZ,61.75,overcast clouds,49.5886,81.0453,
569,Esperance,AU,64.74,few clouds,-33.8667,121.9,
570,Daman,IN,84.54,scattered clouds,20.4167,72.85,
572,Bafra,TR,66.74,clear sky,41.5678,35.9069,
573,Christchurch,NZ,44.8,broken clouds,-43.5333,172.6333,
574,Chicama,PE,63.14,scattered clouds,-7.8447,-79.1469,
575,Hoi An,VN,82.36,overcast clouds,15.8794,108.335,
576,Gejiu,CN,53.62,overcast clouds,23.305999999999997,103.1635,
577,Shenjiamen,CN,65.34,overcast clouds,29.9576,122.29799999999999,
578,Ndele,CF,88.27,overcast clouds,8.4109,20.6473,
579,Elat,IL,84.92,clear sky,29.5581,34.9482,
580,Sinnamary,GF,80.22,broken clouds,5.3833,-52.95,
581,Rio Gallegos,AR,39.25,clear sky,-51.6226,-69.2181,
582,Kimbe,PG,76.12,light rain,-5.5502,150.1429,
583,Fort-Shevchenko,KZ,60.58,scattered clouds,44.5086,50.263000000000005,
584,Kamloops,CA,51.75,clear sky,50.6665,-120.3192,
585,Taman,RU,58.75,overcast clouds,45.2117,36.7161,
586,Longonjo,AO,73.81,broken clouds,-12.9067,15.2533,
587,Springbok,ZA,59.97,few clouds,-29.6643,17.8865,
588,Sylvan Lake,CA,52.36,clear sky,52.3168,-114.0853,
589,Roros,NO,48.04,light intensity shower rain,62.5747,11.3842,
590,Goderich,CA,44.91,overcast clouds,43.7501,-81.7165,
591,Jobat,IN,85.73,clear sky,22.4167,74.5667,
592,Mashhad,IR,64.54,clear sky,36.297,59.6062,
593,Glarus,CH,78.67,overcast clouds,47.0406,9.068,
594,Broken Hill,AU,55.74,scattered clouds,-31.95,141.4333,
595,Santa Catarina De Tepehuanes,MX,77.47,scattered clouds,25.35,-105.7333,
596,Khorinsk,RU,50.34,light rain,52.1657,109.7726,
597,Itarema,BR,83.21,broken clouds,-2.9248,-39.9167,
598,Guanica,PR,89.53,broken clouds,17.9716,-66.908,
599,Roxana,CR,92.03,broken clouds,10.2753,-83.7513,
600,Sinjar,IQ,83.55,overcast clouds,36.3209,41.8754,
602,Margate,GB,68.11,scattered clouds,51.3813,1.3862,
603,Ambovombe,MG,69.53,scattered clouds,-25.1667,46.0833,
604,Juegang,CN,70.95,overcast clouds,32.3174,121.1855,
605,Yining,CN,64.56,moderate rain,29.0361,114.5636,
606,Dudinka,RU,34.5,overcast clouds,69.4058,86.1778,
607,Buala,SB,80.49,light rain,-8.145,159.5921,
608,Salinas,US,54.41,overcast clouds,36.6777,-121.6555,
609,San Policarpo,PH,80.87,overcast clouds,12.1791,125.5072,
610,Athabasca,CA,53.6,overcast clouds,54.7169,-113.2854,
611,Mumford,GH,77.14,light rain,5.2618,-0.759,
612,Ukiah,US,67.05,clear sky,39.1502,-123.2078,
613,Teya,RU,46.74,clear sky,60.3778,92.6267,
614,Olafsvik,IS,44.82,scattered clouds,64.8945,-23.7142,
615,Okha,RU,31.82,overcast clouds,53.5739,142.9478,
616,Kamenka,RU,45.19,overcast clouds,51.3223,42.7678,
617,Manavalakurichi,IN,79.2,overcast clouds,8.1333,77.3,
618,Aquiraz,BR,88.45,scattered clouds,-3.9014,-38.3911,
619,Zvishavane,ZW,62.51,clear sky,-20.3267,30.0665,
620,Pachperwa,IN,79.07,overcast clouds,27.5167,82.65,
621,Sao Joao Da Barra,BR,80.69,clear sky,-21.6403,-41.0511,
622,Pemba,MZ,77.7,few clouds,-12.974,40.5178,
623,Baltiysk,RU,48.54,light rain,54.6538,19.910999999999998,
624,Muscat,OM,98.62,clear sky,23.6139,58.5922,
625,Smithers,CA,55.76,clear sky,54.7804,-127.1743,
626,Peniche,PT,66.29,overcast clouds,39.3558,-9.3811,
627,Camocim,BR,81.88,broken clouds,-2.9022,-40.8411,
628,Gumdag,TM,77.86,clear sky,39.2061,54.5906,
629,College,US,56.07,scattered clouds,64.8569,-147.8028,
630,Warrington,GB,67.32,scattered clouds,53.3925,-2.5802,
631,Rovaniemi,FI,54.81,light rain,66.5,25.7167,
632,Westport,US,90.09,clear sky,41.1415,-73.3579,
633,Sumbe,AO,75.47,broken clouds,-11.2061,13.8437,
634,Koutiala,ML,98.29,overcast clouds,12.3917,-5.4642,
635,Duvan,RU,36.09,overcast clouds,55.695,57.9024,
636,Kamaishi,JP,52.39,few clouds,39.2667,141.8833,
637,Oussouye,SN,86.41,broken clouds,12.485,-16.5469,
638,Naliya,IN,82.83,scattered clouds,23.2667,68.8333,
639,Kulhudhuffushi,MV,83.61,scattered clouds,6.6221,73.07,
640,Santo Antonio Do Ica,BR,79.9,overcast clouds,-3.1022,-67.9397,
641,Cherdyn,RU,34.59,light snow,60.403,56.4787,
642,Tefe,BR,87.91,scattered clouds,-3.3542,-64.7114,
643,Acapulco,MX,84.02,broken clouds,16.8634,-99.8901,
644,Ambilobe,MG,75.07,broken clouds,-13.2,49.05,
645,Quincy,US,97.29,clear sky,42.2529,-71.0023,
646,Kandi,BJ,95.07,overcast clouds,11.1342,2.9386,
647,Vila Franca Do Campo,PT,73.2,light rain,37.7167,-25.4333,
648,Oyem,GA,74.62,light rain,1.5995,11.5793,
649,Stony Plain,CA,55.78,overcast clouds,53.5334,-114.0021,
650,Yakeshi,CN,55.53,scattered clouds,49.2833,120.7333,
651,Nanakuli,US,75.45,overcast clouds,21.3906,-158.1547,
652,Nemuro,JP,45.61,moderate rain,43.3236,145.575,
653,Yatou,CN,63.25,clear sky,37.15,122.3833,
654,Banepa,NP,66.52,broken clouds,27.6298,85.5214,
655,La Palma,US,69.82,few clouds,33.8464,-118.0467,
656,Zhezkazgan,KZ,53.64,clear sky,47.8043,67.7144,
657,Dabakala,CI,80.82,light rain,8.3667,-4.4333,
658,Tekeli,KZ,47.91,overcast clouds,44.83,78.8239,
659,Mokhsogollokh,RU,42.53,light rain,61.4681,128.9203,
660,Jasper,US,59.11,overcast clouds,37.2001,-94.3502,
661,Porto Santo,PT,71.98,few clouds,33.071999999999996,-16.3415,
662,Gao,ML,98.64,broken clouds,16.6362,1.6369999999999998,
663,Neftcala,AZ,63.91,scattered clouds,39.3742,49.2472,
664,Osorno,CL,52.11,broken clouds,-40.5667,-73.15,
665,Dwarka,IN,83.03,scattered clouds,22.2394,68.9678,
666,Katangli,RU,34.99,overcast clouds,51.7102,143.2326,
667,Port Macquarie,AU,55.89,light rain,-31.4333,152.9167,
668,Norton,ZW,64.27,few clouds,-17.8833,30.7,
669,Buta,CD,78.17,light rain,2.7858,24.73,
671,Pedernales,DO,85.71,broken clouds,18.0384,-71.744,
672,Naze,JP,67.24,overcast clouds,28.3667,129.4833,
673,Tateyama,JP,63.93,broken clouds,34.9833,139.8667,
674,Biryusinsk,RU,51.84,overcast clouds,55.9634,97.8235,
675,Wawa,NG,91.99,broken clouds,9.9022,4.4192,
676,Comodoro Rivadavia,AR,46.26,clear sky,-45.8667,-67.5,
677,Dhidhdhoo,MV,83.91,broken clouds,6.8833,73.1,
678,Krasnyy Chikoy,RU,53.98,broken clouds,50.3643,108.7512,
679,Katsuura,JP,62.49,overcast clouds,35.1333,140.3,
680,San Juan Tepa,MX,79.14,clear sky,20.2167,-99.0667,
681,Yerbogachen,RU,46.31,broken clouds,61.2767,108.0108,
682,Poso,ID,76.73,overcast clouds,-1.3959,120.7524,
683,Saint-Ambroise,CA,58.89,overcast clouds,48.5501,-71.3324,
684,Teguise,ES,73.62,few clouds,29.0605,-13.564,
685,Soc Trang,VN,78.04,moderate rain,9.6033,105.98,
687,Mugur-Aksy,RU,59.5,overcast clouds,50.35,90.5,
688,Umm Bab,QA,83.98,clear sky,25.2142,50.8072,
689,Yumen,CN,69.66,broken clouds,40.2833,97.2,
690,Pampas,PE,57.51,overcast clouds,-12.4,-74.9,
691,Changping,CN,76.64,broken clouds,40.2186,116.2197,
692,Narimanov,RU,73.31,broken clouds,46.6927,47.8498,
693,Matay,EG,84.22,clear sky,28.419,30.7792,
694,Marshall,US,84.09,scattered clouds,34.3834,-86.3333,
695,Upington,ZA,62.73,clear sky,-28.4478,21.2561,
696,Corn Island,NI,81.01,overcast clouds,12.1694,-83.0418,
697,Merritt Island,US,89.1,broken clouds,28.5392,-80.672,
